[
    {
        "id": 733,
        "name": "Absurdo - Grill Criollo & Bar",
        "slug": "0733.absurdo---grill-criollo-&-bar",
        "type": "restaurant",
        "enabled": "TRUE",
        "verified": "TRUE",
        "description": "",
        "city_id": 1200729,
        "user_id": 1,
        "zone_id": null,
        "address": "470001, Calle 20 #3-90, Santa Marta",
        "zip": "",
        "lat": "11.24175300000000",
        "lng": "-74.21227100000000",
        "lat_ne": "0.00000000000000",
        "lng_ne": "0.00000000000000",
        "lat_sw": "0.00000000000000",
        "lng_sw": "0.00000000000000",
        "email": "",
        "phone1": "300 6778820",
        "phone2": "",
        "mobile": "",
        "website": "http://www.facebook.com/AbsurdoSM",
        "contact_name": "",
        "photos": 0,
        "modified": "2017-06-14 18:51:13",
        "franhise_id": null,
        "plan": "copper",
        "staff_score": 0,
        "public_score": 0,
        "hits": 0,
        "likes": 0,
        "avg_price": "0.00",
        "cover": "0.00",
        "color": "",
        "genre": "",
        "created_at": "2017-06-14 18:51:13",
        "updated_at": null,
        "city": "Santa Marta"
    },
    {
        "id": 371,
        "name": "acurio rodadero de playa verde",
        "slug": "0371.acurio-rodadero-de-playa-verde",
        "type": "bar",
        "enabled": "TRUE",
        "verified": "TRUE",
        "description": "",
        "city_id": 1200729,
        "user_id": 1,
        "zone_id": null,
        "address": "Tienda Mundo Marino,Entre Calle 11A y Calle 10,Cra. 2,, El Rodadero, Santa Marta",
        "zip": "",
        "lat": "11.20181200000000",
        "lng": "-74.22703100000000",
        "lat_ne": "0.00000000000000",
        "lng_ne": "0.00000000000000",
        "lat_sw": "0.00000000000000",
        "lng_sw": "0.00000000000000",
        "email": "",
        "phone1": "",
        "phone2": "",
        "mobile": "",
        "website": "",
        "contact_name": "",
        "photos": 0,
        "modified": "2017-06-14 18:51:13",
        "franhise_id": null,
        "plan": "copper",
        "staff_score": 0,
        "public_score": 0,
        "hits": 0,
        "likes": 0,
        "avg_price": "0.00",
        "cover": "0.00",
        "color": "",
        "genre": "",
        "created_at": "2017-06-14 18:51:13",
        "updated_at": null,
        "city": "Santa Marta"
    },
    {
        "id": 716,
        "name": "Akikomo Sushi",
        "slug": "0716.akikomo-sushi",
        "type": "restaurant",
        "enabled": "TRUE",
        "verified": "TRUE",
        "description": "",
        "city_id": 1200729,
        "user_id": 1,
        "zone_id": null,
        "address": "Carrera 8 #27B-46 Loc 1, Santa Marta, Santa Marta",
        "zip": "",
        "lat": "11.23378700000000",
        "lng": "-74.20568100000000",
        "lat_ne": "0.00000000000000",
        "lng_ne": "0.00000000000000",
        "lat_sw": "0.00000000000000",
        "lng_sw": "0.00000000000000",
        "email": "",
        "phone1": "(5) 4358143",
        "phone2": "",
        "mobile": "",
        "website": "http://www.akikomosushi.com/",
        "contact_name": "",
        "photos": 0,
        "modified": "2017-06-14 18:51:13",
        "franhise_id": null,
        "plan": "copper",
        "staff_score": 0,
        "public_score": 0,
        "hits": 0,
        "likes": 0,
        "avg_price": "0.00",
        "cover": "0.00",
        "color": "",
        "genre": "",
        "created_at": "2017-06-14 18:51:13",
        "updated_at": null,
        "city": "Santa Marta"
    },
    {
        "id": 358,
        "name": "albania - bar",
        "slug": "0358.albania---bar",
        "type": "bar",
        "enabled": "TRUE",
        "verified": "TRUE",
        "description": "",
        "city_id": 1200729,
        "user_id": 1,
        "zone_id": null,
        "address": "Calle 17 #31, Santa Marta",
        "zip": "",
        "lat": "11.24341400000000",
        "lng": "-74.21282200000000",
        "lat_ne": "0.00000000000000",
        "lng_ne": "0.00000000000000",
        "lat_sw": "0.00000000000000",
        "lng_sw": "0.00000000000000",
        "email": "",
        "phone1": "",
        "phone2": "",
        "mobile": "",
        "website": "",
        "contact_name": "",
        "photos": 0,
        "modified": "2017-06-14 18:51:13",
        "franhise_id": null,
        "plan": "copper",
        "staff_score": 0,
        "public_score": 0,
        "hits": 0,
        "likes": 0,
        "avg_price": "0.00",
        "cover": "0.00",
        "color": "",
        "genre": "",
        "created_at": "2017-06-14 18:51:13",
        "updated_at": null,
        "city": "Santa Marta"
    },
    {
        "id": 323,
        "name": "Amancay Bar",
        "slug": "0323.amancay-bar",
        "type": "bar",
        "enabled": "TRUE",
        "verified": "TRUE",
        "description": "",
        "city_id": 1200729,
        "user_id": 1,
        "zone_id": null,
        "address": "Calle 16 #1C-92, Santa Marta",
        "zip": "",
        "lat": "11.24388000000000",
        "lng": "-74.21338000000000",
        "lat_ne": "0.00000000000000",
        "lng_ne": "0.00000000000000",
        "lat_sw": "0.00000000000000",
        "lng_sw": "0.00000000000000",
        "email": "",
        "phone1": "(5) 7437521",
        "phone2": "",
        "mobile": "",
        "website": "",
        "contact_name": "",
        "photos": 0,
        "modified": "2017-06-14 18:51:13",
        "franhise_id": null,
        "plan": "copper",
        "staff_score": 0,
        "public_score": 0,
        "hits": 0,
        "likes": 0,
        "avg_price": "0.00",
        "cover": "0.00",
        "color": "",
        "genre": "",
        "created_at": "2017-06-14 18:51:13",
        "updated_at": null,
        "city": "Santa Marta"
    },
    {
        "id": 773,
        "name": "American Broasted Chicken",
        "slug": "0773.american-broasted-chicken",
        "type": "restaurant",
        "enabled": "TRUE",
        "verified": "TRUE",
        "description": "",
        "city_id": 1200729,
        "user_id": 1,
        "zone_id": null,
        "address": "Calle 8 #1-58, Santa Marta",
        "zip": "",
        "lat": "11.20447000000000",
        "lng": "-74.22679000000000",
        "lat_ne": "0.00000000000000",
        "lng_ne": "0.00000000000000",
        "lat_sw": "0.00000000000000",
        "lng_sw": "0.00000000000000",
        "email": "",
        "phone1": "(5) 4220805",
        "phone2": "",
        "mobile": "",
        "website": "",
        "contact_name": "",
        "photos": 0,
        "modified": "2017-06-14 18:51:13",
        "franhise_id": null,
        "plan": "copper",
        "staff_score": 0,
        "public_score": 0,
        "hits": 0,
        "likes": 0,
        "avg_price": "0.00",
        "cover": "0.00",
        "color": "",
        "genre": "",
        "created_at": "2017-06-14 18:51:13",
        "updated_at": null,
        "city": "Santa Marta"
    },
    {
        "id": 307,
        "name": "Anime Cocktails",
        "slug": "0307.anime-cocktails",
        "type": "bar",
        "enabled": "TRUE",
        "verified": "TRUE",
        "description": "",
        "city_id": 1200729,
        "user_id": 1,
        "zone_id": null,
        "address": "Calle 17 #3-77, Santa Marta, Santa Marta",
        "zip": "",
        "lat": "11.24343200000000",
        "lng": "-74.21210200000000",
        "lat_ne": "0.00000000000000",
        "lng_ne": "0.00000000000000",
        "lat_sw": "0.00000000000000",
        "lng_sw": "0.00000000000000",
        "email": "",
        "phone1": "(5) 4230157",
        "phone2": "",
        "mobile": "",
        "website": "",
        "contact_name": "",
        "photos": 0,
        "modified": "2017-06-14 18:51:13",
        "franhise_id": null,
        "plan": "copper",
        "staff_score": 0,
        "public_score": 0,
        "hits": 0,
        "likes": 0,
        "avg_price": "0.00",
        "cover": "0.00",
        "color": "",
        "genre": "",
        "created_at": "2017-06-14 18:51:13",
        "updated_at": null,
        "city": "Santa Marta"
    },
    {
        "id": 406,
        "name": "Antike & Pique",
        "slug": "0406.antike-&-pique",
        "type": "bar",
        "enabled": "TRUE",
        "verified": "TRUE",
        "description": "",
        "city_id": 1200729,
        "user_id": 1,
        "zone_id": null,
        "address": "Carrera 3A #5-65, El Rodadero",
        "zip": "",
        "lat": "11.20840500000000",
        "lng": "-74.22668400000000",
        "lat_ne": "0.00000000000000",
        "lng_ne": "0.00000000000000",
        "lat_sw": "0.00000000000000",
        "lng_sw": "0.00000000000000",
        "email": "",
        "phone1": "(5) 4201558",
        "phone2": "",
        "mobile": "",
        "website": "",
        "contact_name": "",
        "photos": 0,
        "modified": "2017-06-14 18:51:13",
        "franhise_id": null,
        "plan": "copper",
        "staff_score": 0,
        "public_score": 0,
        "hits": 0,
        "likes": 0,
        "avg_price": "0.00",
        "cover": "0.00",
        "color": "",
        "genre": "",
        "created_at": "2017-06-14 18:51:13",
        "updated_at": null,
        "city": "Santa Marta"
    },
    {
        "id": 381,
        "name": "Arcadia game bar",
        "slug": "0381.arcadia-game-bar",
        "type": "bar",
        "enabled": "TRUE",
        "verified": "TRUE",
        "description": "",
        "city_id": 1200729,
        "user_id": 1,
        "zone_id": null,
        "address": "a 11-188,, Calle 3 #11-2, Gaira, Santa Marta",
        "zip": "",
        "lat": "11.19486700000000",
        "lng": "-74.22014600000000",
        "lat_ne": "0.00000000000000",
        "lng_ne": "0.00000000000000",
        "lat_sw": "0.00000000000000",
        "lng_sw": "0.00000000000000",
        "email": "",
        "phone1": "4350139",
        "phone2": "",
        "mobile": "",
        "website": "http://cristianfigueroa3.wixsite.com/arcadia",
        "contact_name": "",
        "photos": 0,
        "modified": "2017-06-14 18:51:13",
        "franhise_id": null,
        "plan": "copper",
        "staff_score": 0,
        "public_score": 0,
        "hits": 0,
        "likes": 0,
        "avg_price": "0.00",
        "cover": "0.00",
        "color": "",
        "genre": "",
        "created_at": "2017-06-14 18:51:13",
        "updated_at": null,
        "city": "Santa Marta"
    },
    {
        "id": 820,
        "name": "Arepa De Huevo",
        "slug": "0820.arepa-de-huevo",
        "type": "restaurant",
        "enabled": "TRUE",
        "verified": "TRUE",
        "description": "",
        "city_id": 1200729,
        "user_id": 1,
        "zone_id": null,
        "address": "a 1-64,, Calle 12 #1-2, Gaira, Santa Marta",
        "zip": "",
        "lat": "11.19975900000000",
        "lng": "-74.22745500000000",
        "lat_ne": "0.00000000000000",
        "lng_ne": "0.00000000000000",
        "lat_sw": "0.00000000000000",
        "lng_sw": "0.00000000000000",
        "email": "",
        "phone1": "",
        "phone2": "",
        "mobile": "",
        "website": "",
        "contact_name": "",
        "photos": 0,
        "modified": "2017-06-14 18:51:13",
        "franhise_id": null,
        "plan": "copper",
        "staff_score": 0,
        "public_score": 0,
        "hits": 0,
        "likes": 0,
        "avg_price": "0.00",
        "cover": "0.00",
        "color": "",
        "genre": "",
        "created_at": "2017-06-14 18:51:13",
        "updated_at": null,
        "city": "Santa Marta"
    },
    {
        "id": 730,
        "name": "Arte Gourmet",
        "slug": "0730.arte-gourmet",
        "type": "restaurant",
        "enabled": "TRUE",
        "verified": "TRUE",
        "description": "",
        "city_id": 1200729,
        "user_id": 1,
        "zone_id": null,
        "address": "Calle 19 #3-98, Santa Marta, Magdalena, 470004, Colombia, Santa Marta, Magdalena",
        "zip": "",
        "lat": "11.24226500000000",
        "lng": "-74.21215000000000",
        "lat_ne": "0.00000000000000",
        "lng_ne": "0.00000000000000",
        "lat_sw": "0.00000000000000",
        "lng_sw": "0.00000000000000",
        "email": "",
        "phone1": "(5) 4308620",
        "phone2": "",
        "mobile": "",
        "website": "http://www.artegourmetr.wix.com/artegourmet",
        "contact_name": "",
        "photos": 0,
        "modified": "2017-06-14 18:51:13",
        "franhise_id": null,
        "plan": "copper",
        "staff_score": 0,
        "public_score": 0,
        "hits": 0,
        "likes": 0,
        "avg_price": "0.00",
        "cover": "0.00",
        "color": "",
        "genre": "",
        "created_at": "2017-06-14 18:51:13",
        "updated_at": null,
        "city": "Santa Marta"
    },
    {
        "id": 776,
        "name": "Asadero el Banano",
        "slug": "0776.asadero-el-banano",
        "type": "restaurant",
        "enabled": "TRUE",
        "verified": "TRUE",
        "description": "",
        "city_id": 1200729,
        "user_id": 1,
        "zone_id": null,
        "address": "Centro Comercial Arrecife, Carrera 4 #11B-119, El Rodadero",
        "zip": "",
        "lat": "11.20019600000000",
        "lng": "-74.22536100000000",
        "lat_ne": "0.00000000000000",
        "lng_ne": "0.00000000000000",
        "lat_sw": "0.00000000000000",
        "lng_sw": "0.00000000000000",
        "email": "",
        "phone1": "(5) 4222009",
        "phone2": "",
        "mobile": "",
        "website": "http://www.restauranteelbanano.com",
        "contact_name": "",
        "photos": 0,
        "modified": "2017-06-14 18:51:13",
        "franhise_id": null,
        "plan": "copper",
        "staff_score": 0,
        "public_score": 0,
        "hits": 0,
        "likes": 0,
        "avg_price": "0.00",
        "cover": "0.00",
        "color": "",
        "genre": "",
        "created_at": "2017-06-14 18:51:13",
        "updated_at": null,
        "city": "Santa Marta"
    },
    {
        "id": 786,
        "name": "Asadero EL BANANO",
        "slug": "0786.asadero-el-banano",
        "type": "restaurant",
        "enabled": "TRUE",
        "verified": "TRUE",
        "description": "",
        "city_id": 1200729,
        "user_id": 1,
        "zone_id": null,
        "address": "Carrera 2 #7-38, Santa Marta",
        "zip": "",
        "lat": "11.20525100000000",
        "lng": "-74.22679800000000",
        "lat_ne": "0.00000000000000",
        "lng_ne": "0.00000000000000",
        "lat_sw": "0.00000000000000",
        "lng_sw": "0.00000000000000",
        "email": "",
        "phone1": "(5) 4220631",
        "phone2": "",
        "mobile": "",
        "website": "http://www.restauranteelbanano.com",
        "contact_name": "",
        "photos": 0,
        "modified": "2017-06-14 18:51:13",
        "franhise_id": null,
        "plan": "copper",
        "staff_score": 0,
        "public_score": 0,
        "hits": 0,
        "likes": 0,
        "avg_price": "0.00",
        "cover": "0.00",
        "color": "",
        "genre": "",
        "created_at": "2017-06-14 18:51:13",
        "updated_at": null,
        "city": "Santa Marta"
    },
    {
        "id": 711,
        "name": "Asaderos mi Cali",
        "slug": "0711.asaderos-mi-cali",
        "type": "restaurant",
        "enabled": "TRUE",
        "verified": "TRUE",
        "description": "",
        "city_id": 1200729,
        "user_id": 1,
        "zone_id": null,
        "address": "Carrera 5 #10C-03, Santa Marta",
        "zip": "",
        "lat": "11.24650900000000",
        "lng": "-74.21010400000000",
        "lat_ne": "0.00000000000000",
        "lng_ne": "0.00000000000000",
        "lat_sw": "0.00000000000000",
        "lng_sw": "0.00000000000000",
        "email": "",
        "phone1": "(5) 4224608",
        "phone2": "",
        "mobile": "",
        "website": "",
        "contact_name": "",
        "photos": 0,
        "modified": "2017-06-14 18:51:13",
        "franhise_id": null,
        "plan": "copper",
        "staff_score": 0,
        "public_score": 0,
        "hits": 0,
        "likes": 0,
        "avg_price": "0.00",
        "cover": "0.00",
        "color": "",
        "genre": "",
        "created_at": "2017-06-14 18:51:13",
        "updated_at": null,
        "city": "Santa Marta"
    },
    {
        "id": 806,
        "name": "Asados & Mucho Más",
        "slug": "0806.asados-&-mucho-mas",
        "type": "restaurant",
        "enabled": "TRUE",
        "verified": "TRUE",
        "description": "",
        "city_id": 1200729,
        "user_id": 1,
        "zone_id": null,
        "address": "C.C. Arrecife, Carrera 4 #11B-119, Santa Marta",
        "zip": "",
        "lat": "11.20029700000000",
        "lng": "-74.22537900000000",
        "lat_ne": "0.00000000000000",
        "lng_ne": "0.00000000000000",
        "lat_sw": "0.00000000000000",
        "lng_sw": "0.00000000000000",
        "email": "",
        "phone1": "",
        "phone2": "",
        "mobile": "",
        "website": "",
        "contact_name": "",
        "photos": 0,
        "modified": "2017-06-14 18:51:13",
        "franhise_id": null,
        "plan": "copper",
        "staff_score": 0,
        "public_score": 0,
        "hits": 0,
        "likes": 0,
        "avg_price": "0.00",
        "cover": "0.00",
        "color": "",
        "genre": "",
        "created_at": "2017-06-14 18:51:13",
        "updated_at": null,
        "city": "Santa Marta"
    },
    {
        "id": 332,
        "name": "Atlantis Video Bar - Restaurante",
        "slug": "0332.atlantis-video-bar---restaurante",
        "type": "bar",
        "enabled": "TRUE",
        "verified": "TRUE",
        "description": "",
        "city_id": 1200729,
        "user_id": 1,
        "zone_id": null,
        "address": "Parque de los Novios, Calle 19 #3-99, Santa Marta",
        "zip": "",
        "lat": "11.24228200000000",
        "lng": "-74.21196200000000",
        "lat_ne": "0.00000000000000",
        "lng_ne": "0.00000000000000",
        "lat_sw": "0.00000000000000",
        "lng_sw": "0.00000000000000",
        "email": "",
        "phone1": "(5) 4234872",
        "phone2": "",
        "mobile": "",
        "website": "",
        "contact_name": "",
        "photos": 0,
        "modified": "2017-06-14 18:51:13",
        "franhise_id": null,
        "plan": "copper",
        "staff_score": 0,
        "public_score": 0,
        "hits": 0,
        "likes": 0,
        "avg_price": "0.00",
        "cover": "0.00",
        "color": "",
        "genre": "",
        "created_at": "2017-06-14 18:51:13",
        "updated_at": null,
        "city": "Santa Marta"
    },
    {
        "id": 721,
        "name": "Baguettina Restaurante y La mesa de don Alfonso",
        "slug": "0721.baguettina-restaurante-y-la-mesa-de-don-alfonso",
        "type": "restaurant",
        "enabled": "TRUE",
        "verified": "TRUE",
        "description": "",
        "city_id": 1200729,
        "user_id": 1,
        "zone_id": null,
        "address": "Carrera 1c #2330, Santa Marta, Santa Marta",
        "zip": "",
        "lat": "11.23984300000000",
        "lng": "-74.21598700000000",
        "lat_ne": "0.00000000000000",
        "lng_ne": "0.00000000000000",
        "lat_sw": "0.00000000000000",
        "lng_sw": "0.00000000000000",
        "email": "",
        "phone1": "(5) 4216378",
        "phone2": "",
        "mobile": "",
        "website": "http://baguettina.co",
        "contact_name": "",
        "photos": 0,
        "modified": "2017-06-14 18:51:13",
        "franhise_id": null,
        "plan": "copper",
        "staff_score": 0,
        "public_score": 0,
        "hits": 0,
        "likes": 0,
        "avg_price": "0.00",
        "cover": "0.00",
        "color": "",
        "genre": "",
        "created_at": "2017-06-14 18:51:13",
        "updated_at": null,
        "city": "Santa Marta"
    },
    {
        "id": 383,
        "name": "Bar",
        "slug": "0383.bar",
        "type": "bar",
        "enabled": "TRUE",
        "verified": "TRUE",
        "description": "",
        "city_id": 1200729,
        "user_id": 1,
        "zone_id": null,
        "address": "Carrera 3 #8-69, Santa Marta",
        "zip": "",
        "lat": "11.20371900000000",
        "lng": "-74.22583400000000",
        "lat_ne": "0.00000000000000",
        "lng_ne": "0.00000000000000",
        "lat_sw": "0.00000000000000",
        "lng_sw": "0.00000000000000",
        "email": "",
        "phone1": "",
        "phone2": "",
        "mobile": "",
        "website": "",
        "contact_name": "",
        "photos": 0,
        "modified": "2017-06-14 18:51:13",
        "franhise_id": null,
        "plan": "copper",
        "staff_score": 0,
        "public_score": 0,
        "hits": 0,
        "likes": 0,
        "avg_price": "0.00",
        "cover": "0.00",
        "color": "",
        "genre": "",
        "created_at": "2017-06-14 18:51:13",
        "updated_at": null,
        "city": "Santa Marta"
    },
    {
        "id": 314,
        "name": "Bar café vía del mar",
        "slug": "0314.bar-cafe-via-del-mar",
        "type": "bar",
        "enabled": "TRUE",
        "verified": "TRUE",
        "description": "",
        "city_id": 1200729,
        "user_id": 1,
        "zone_id": null,
        "address": "Cal 2 N. 2-58 edificio mar de leva, Santa Marta, Santa Marta",
        "zip": "",
        "lat": "11.24035500000000",
        "lng": "-74.21102300000000",
        "lat_ne": "0.00000000000000",
        "lng_ne": "0.00000000000000",
        "lat_sw": "0.00000000000000",
        "lng_sw": "0.00000000000000",
        "email": "",
        "phone1": "314 8371070",
        "phone2": "",
        "mobile": "",
        "website": "http://www.cafe/via/delmar",
        "contact_name": "",
        "photos": 10,
        "modified": "2017-06-14 18:51:13",
        "franhise_id": null,
        "plan": "copper",
        "staff_score": 0,
        "public_score": 0,
        "hits": 0,
        "likes": 0,
        "avg_price": "0.00",
        "cover": "0.00",
        "color": "",
        "genre": "",
        "created_at": "2017-06-14 18:51:13",
        "updated_at": null,
        "city": "Santa Marta"
    },
    {
        "id": 739,
        "name": "Bar café vía del mar",
        "slug": "0739.bar-cafe-via-del-mar",
        "type": "bar",
        "enabled": "TRUE",
        "verified": "TRUE",
        "description": "",
        "city_id": 1200729,
        "user_id": 1,
        "zone_id": null,
        "address": "Cal 2 N. 2-58 edificio mar de leva, Santa Marta, Santa Marta",
        "zip": "",
        "lat": "11.24035500000000",
        "lng": "-74.21102300000000",
        "lat_ne": "0.00000000000000",
        "lng_ne": "0.00000000000000",
        "lat_sw": "0.00000000000000",
        "lng_sw": "0.00000000000000",
        "email": "",
        "phone1": "314 8371070",
        "phone2": "",
        "mobile": "",
        "website": "http://www.cafe/via/delmar",
        "contact_name": "",
        "photos": 0,
        "modified": "2017-06-14 18:51:13",
        "franhise_id": null,
        "plan": "copper",
        "staff_score": 0,
        "public_score": 0,
        "hits": 0,
        "likes": 0,
        "avg_price": "0.00",
        "cover": "0.00",
        "color": "",
        "genre": "",
        "created_at": "2017-06-14 18:51:13",
        "updated_at": null,
        "city": "Santa Marta"
    },
    {
        "id": 398,
        "name": "Bar Gairaca",
        "slug": "0398.bar-gairaca",
        "type": "bar",
        "enabled": "TRUE",
        "verified": "TRUE",
        "description": "",
        "city_id": 1200729,
        "user_id": 1,
        "zone_id": null,
        "address": "Calle 12 #15-10",
        "zip": "",
        "lat": "11.18992000000000",
        "lng": "-74.22278200000000",
        "lat_ne": "0.00000000000000",
        "lng_ne": "0.00000000000000",
        "lat_sw": "0.00000000000000",
        "lng_sw": "0.00000000000000",
        "email": "",
        "phone1": "",
        "phone2": "",
        "mobile": "",
        "website": "",
        "contact_name": "",
        "photos": 10,
        "modified": "2017-06-14 18:51:13",
        "franhise_id": null,
        "plan": "copper",
        "staff_score": 0,
        "public_score": 0,
        "hits": 0,
        "likes": 0,
        "avg_price": "0.00",
        "cover": "0.00",
        "color": "",
        "genre": "",
        "created_at": "2017-06-14 18:51:13",
        "updated_at": null,
        "city": "Santa Marta"
    },
    {
        "id": 397,
        "name": "Bar Jamaica",
        "slug": "0397.bar-jamaica",
        "type": "bar",
        "enabled": "TRUE",
        "verified": "TRUE",
        "description": "",
        "city_id": 1200729,
        "user_id": 1,
        "zone_id": null,
        "address": "Calle 7 #2-26, Santa Marta",
        "zip": "",
        "lat": "11.20563700000000",
        "lng": "-74.22648400000000",
        "lat_ne": "0.00000000000000",
        "lng_ne": "0.00000000000000",
        "lat_sw": "0.00000000000000",
        "lng_sw": "0.00000000000000",
        "email": "",
        "phone1": "",
        "phone2": "",
        "mobile": "",
        "website": "",
        "contact_name": "",
        "photos": 10,
        "modified": "2017-06-14 18:51:13",
        "franhise_id": null,
        "plan": "copper",
        "staff_score": 0,
        "public_score": 0,
        "hits": 0,
        "likes": 0,
        "avg_price": "0.00",
        "cover": "0.00",
        "color": "",
        "genre": "",
        "created_at": "2017-06-14 18:51:13",
        "updated_at": null,
        "city": "Santa Marta"
    },
    {
        "id": 348,
        "name": "Bar Kudeta",
        "slug": "0348.bar-kudeta",
        "type": "bar",
        "enabled": "TRUE",
        "verified": "TRUE",
        "description": "",
        "city_id": 1200729,
        "user_id": 1,
        "zone_id": null,
        "address": "Calle 17 #3-39, Santa Marta",
        "zip": "",
        "lat": "11.24334700000000",
        "lng": "-74.21260500000000",
        "lat_ne": "0.00000000000000",
        "lng_ne": "0.00000000000000",
        "lat_sw": "0.00000000000000",
        "lng_sw": "0.00000000000000",
        "email": "",
        "phone1": "",
        "phone2": "",
        "mobile": "",
        "website": "",
        "contact_name": "",
        "photos": 0,
        "modified": "2017-06-14 18:51:13",
        "franhise_id": null,
        "plan": "copper",
        "staff_score": 0,
        "public_score": 0,
        "hits": 0,
        "likes": 0,
        "avg_price": "0.00",
        "cover": "0.00",
        "color": "",
        "genre": "",
        "created_at": "2017-06-14 18:51:13",
        "updated_at": null,
        "city": "Santa Marta"
    },
    {
        "id": 359,
        "name": "Barbas Disco Bar",
        "slug": "0359.barbas-disco-bar",
        "type": "bar",
        "enabled": "TRUE",
        "verified": "TRUE",
        "description": "",
        "city_id": 1200729,
        "user_id": 1,
        "zone_id": null,
        "address": "Calle 19 #3-09, Santa Marta",
        "zip": "",
        "lat": "11.24239600000000",
        "lng": "-74.21287000000000",
        "lat_ne": "0.00000000000000",
        "lng_ne": "0.00000000000000",
        "lat_sw": "0.00000000000000",
        "lng_sw": "0.00000000000000",
        "email": "",
        "phone1": "",
        "phone2": "",
        "mobile": "",
        "website": "",
        "contact_name": "",
        "photos": 0,
        "modified": "2017-06-14 18:51:13",
        "franhise_id": null,
        "plan": "copper",
        "staff_score": 0,
        "public_score": 0,
        "hits": 0,
        "likes": 0,
        "avg_price": "0.00",
        "cover": "0.00",
        "color": "",
        "genre": "",
        "created_at": "2017-06-14 18:51:13",
        "updated_at": null,
        "city": "Santa Marta"
    },
    {
        "id": 364,
        "name": "Bariloche",
        "slug": "0364.bariloche",
        "type": "bar",
        "enabled": "TRUE",
        "verified": "TRUE",
        "description": "",
        "city_id": 1200729,
        "user_id": 1,
        "zone_id": null,
        "address": "Calle 13 #2-41, Santa Marta",
        "zip": "",
        "lat": "11.19912000000000",
        "lng": "-74.22679000000000",
        "lat_ne": "0.00000000000000",
        "lng_ne": "0.00000000000000",
        "lat_sw": "0.00000000000000",
        "lng_sw": "0.00000000000000",
        "email": "",
        "phone1": "",
        "phone2": "",
        "mobile": "",
        "website": "",
        "contact_name": "",
        "photos": 0,
        "modified": "2017-06-14 18:51:13",
        "franhise_id": null,
        "plan": "copper",
        "staff_score": 0,
        "public_score": 0,
        "hits": 0,
        "likes": 0,
        "avg_price": "0.00",
        "cover": "0.00",
        "color": "",
        "genre": "",
        "created_at": "2017-06-14 18:51:13",
        "updated_at": null,
        "city": "Santa Marta"
    },
    {
        "id": 368,
        "name": "Barra Libre",
        "slug": "0368.barra-libre",
        "type": "bar",
        "enabled": "TRUE",
        "verified": "TRUE",
        "description": "",
        "city_id": 1200729,
        "user_id": 1,
        "zone_id": null,
        "address": "Carrera 4 #11B-46, Santa Marta",
        "zip": "",
        "lat": "11.19829000000000",
        "lng": "-74.22602000000000",
        "lat_ne": "0.00000000000000",
        "lng_ne": "0.00000000000000",
        "lat_sw": "0.00000000000000",
        "lng_sw": "0.00000000000000",
        "email": "",
        "phone1": "",
        "phone2": "",
        "mobile": "",
        "website": "",
        "contact_name": "",
        "photos": 0,
        "modified": "2017-06-14 18:51:13",
        "franhise_id": null,
        "plan": "copper",
        "staff_score": 0,
        "public_score": 0,
        "hits": 0,
        "likes": 0,
        "avg_price": "0.00",
        "cover": "0.00",
        "color": "",
        "genre": "",
        "created_at": "2017-06-14 18:51:13",
        "updated_at": null,
        "city": "Santa Marta"
    },
    {
        "id": 352,
        "name": "Barrio Samario",
        "slug": "0352.barrio-samario",
        "type": "bar",
        "enabled": "TRUE",
        "verified": "TRUE",
        "description": "",
        "city_id": 1200729,
        "user_id": 1,
        "zone_id": null,
        "address": "Carrera 3, Santa Marta",
        "zip": "",
        "lat": "11.24314300000000",
        "lng": "-74.21277600000000",
        "lat_ne": "0.00000000000000",
        "lng_ne": "0.00000000000000",
        "lat_sw": "0.00000000000000",
        "lng_sw": "0.00000000000000",
        "email": "",
        "phone1": "",
        "phone2": "",
        "mobile": "",
        "website": "",
        "contact_name": "",
        "photos": 0,
        "modified": "2017-06-14 18:51:13",
        "franhise_id": null,
        "plan": "copper",
        "staff_score": 0,
        "public_score": 0,
        "hits": 0,
        "likes": 0,
        "avg_price": "0.00",
        "cover": "0.00",
        "color": "",
        "genre": "",
        "created_at": "2017-06-14 18:51:13",
        "updated_at": null,
        "city": "Santa Marta"
    },
    {
        "id": 715,
        "name": "Basilea Comida Francesa y Mediterranea",
        "slug": "0715.basilea-comida-francesa-y-mediterranea",
        "type": "restaurant",
        "enabled": "TRUE",
        "verified": "TRUE",
        "description": "",
        "city_id": 1200729,
        "user_id": 1,
        "zone_id": null,
        "address": "Calle 16 #2-58, Santa Marta",
        "zip": "",
        "lat": "11.24397000000000",
        "lng": "-74.21305000000000",
        "lat_ne": "0.00000000000000",
        "lng_ne": "0.00000000000000",
        "lat_sw": "0.00000000000000",
        "lng_sw": "0.00000000000000",
        "email": "",
        "phone1": "316 8334846",
        "phone2": "",
        "mobile": "",
        "website": "http://www.basileagourmet.inf.travel/company/section",
        "contact_name": "",
        "photos": 0,
        "modified": "2017-06-14 18:51:13",
        "franhise_id": null,
        "plan": "copper",
        "staff_score": 0,
        "public_score": 0,
        "hits": 0,
        "likes": 0,
        "avg_price": "0.00",
        "cover": "0.00",
        "color": "",
        "genre": "",
        "created_at": "2017-06-14 18:51:13",
        "updated_at": null,
        "city": "Santa Marta"
    },
    {
        "id": 737,
        "name": "Bienvenue Crepes",
        "slug": "0737.bienvenue-crepes",
        "type": "restaurant",
        "enabled": "TRUE",
        "verified": "TRUE",
        "description": "",
        "city_id": 1200729,
        "user_id": 1,
        "zone_id": null,
        "address": "Carrera 3 #18-57, Parque de los Novios, Santa Marta",
        "zip": "",
        "lat": "11.24244800000000",
        "lng": "-74.21291800000000",
        "lat_ne": "0.00000000000000",
        "lng_ne": "0.00000000000000",
        "lat_sw": "0.00000000000000",
        "lng_sw": "0.00000000000000",
        "email": "",
        "phone1": "316 5317624",
        "phone2": "",
        "mobile": "",
        "website": "http://bienvenuecrepes.com/",
        "contact_name": "",
        "photos": 0,
        "modified": "2017-06-14 18:51:13",
        "franhise_id": null,
        "plan": "copper",
        "staff_score": 0,
        "public_score": 0,
        "hits": 0,
        "likes": 0,
        "avg_price": "0.00",
        "cover": "0.00",
        "color": "",
        "genre": "",
        "created_at": "2017-06-14 18:51:13",
        "updated_at": null,
        "city": "Santa Marta"
    },
    {
        "id": 719,
        "name": "Bijao Gourmet Restaurante Bar",
        "slug": "0719.bijao-gourmet-restaurante-bar",
        "type": "restaurant",
        "enabled": "TRUE",
        "verified": "TRUE",
        "description": "",
        "city_id": 1200729,
        "user_id": 1,
        "zone_id": null,
        "address": "carrera 1 # 20-09 local 2, Calle 20, Santa Marta, Santa Marta",
        "zip": "",
        "lat": "11.24232400000000",
        "lng": "-74.21525000000000",
        "lat_ne": "0.00000000000000",
        "lng_ne": "0.00000000000000",
        "lat_sw": "0.00000000000000",
        "lng_sw": "0.00000000000000",
        "email": "",
        "phone1": "316 6391800",
        "phone2": "",
        "mobile": "",
        "website": "http://bijaogourmet.blogspot.com/",
        "contact_name": "",
        "photos": 0,
        "modified": "2017-06-14 18:51:13",
        "franhise_id": null,
        "plan": "copper",
        "staff_score": 0,
        "public_score": 0,
        "hits": 0,
        "likes": 0,
        "avg_price": "0.00",
        "cover": "0.00",
        "color": "",
        "genre": "",
        "created_at": "2017-06-14 18:51:13",
        "updated_at": null,
        "city": "Santa Marta"
    },
    {
        "id": 1146,
        "name": "Billares Mary",
        "slug": "1146.billares-mary",
        "type": "night_club",
        "enabled": "TRUE",
        "verified": "TRUE",
        "description": "",
        "city_id": 1200729,
        "user_id": 1,
        "zone_id": null,
        "address": "Carrera 10 #7-97, Gaira, Santa Marta",
        "zip": "",
        "lat": "11.19147700000000",
        "lng": "-74.21839100000000",
        "lat_ne": "0.00000000000000",
        "lng_ne": "0.00000000000000",
        "lat_sw": "0.00000000000000",
        "lng_sw": "0.00000000000000",
        "email": "",
        "phone1": "316 2963023",
        "phone2": "",
        "mobile": "",
        "website": "",
        "contact_name": "",
        "photos": 0,
        "modified": "2017-06-14 18:51:13",
        "franhise_id": null,
        "plan": "copper",
        "staff_score": 0,
        "public_score": 0,
        "hits": 0,
        "likes": 0,
        "avg_price": "0.00",
        "cover": "0.00",
        "color": "",
        "genre": "",
        "created_at": "2017-06-14 18:51:13",
        "updated_at": null,
        "city": "Santa Marta"
    },
    {
        "id": 1408,
        "name": "Bingo Ocean",
        "slug": "1408.bingo-ocean",
        "type": "casino",
        "enabled": "TRUE",
        "verified": "TRUE",
        "description": "",
        "city_id": 1200729,
        "user_id": 1,
        "zone_id": null,
        "address": "Centro Comercial Ocean Mall, Ferrocaril #15 - 100, Santa Marta",
        "zip": "",
        "lat": "11.23169900000000",
        "lng": "-74.19914300000000",
        "lat_ne": "0.00000000000000",
        "lng_ne": "0.00000000000000",
        "lat_sw": "0.00000000000000",
        "lng_sw": "0.00000000000000",
        "email": "",
        "phone1": "(5) 4363606",
        "phone2": "",
        "mobile": "",
        "website": "",
        "contact_name": "",
        "photos": 0,
        "modified": "2017-06-14 18:51:13",
        "franhise_id": null,
        "plan": "copper",
        "staff_score": 0,
        "public_score": 0,
        "hits": 0,
        "likes": 0,
        "avg_price": "0.00",
        "cover": "0.00",
        "color": "",
        "genre": "",
        "created_at": "2017-06-14 18:51:13",
        "updated_at": null,
        "city": "Santa Marta"
    },
    {
        "id": 774,
        "name": "Brangus",
        "slug": "0774.brangus",
        "type": "restaurant",
        "enabled": "TRUE",
        "verified": "TRUE",
        "description": "",
        "city_id": 1200729,
        "user_id": 1,
        "zone_id": null,
        "address": "Centro Comercial Arrecife, Carrera 4 #11B-119, El Rodadero",
        "zip": "",
        "lat": "11.19994900000000",
        "lng": "-74.22561100000000",
        "lat_ne": "0.00000000000000",
        "lng_ne": "0.00000000000000",
        "lat_sw": "0.00000000000000",
        "lng_sw": "0.00000000000000",
        "email": "",
        "phone1": "(5) 4221132",
        "phone2": "",
        "mobile": "",
        "website": "http://www.brangussteak.com",
        "contact_name": "",
        "photos": 0,
        "modified": "2017-06-14 18:51:13",
        "franhise_id": null,
        "plan": "copper",
        "staff_score": 0,
        "public_score": 0,
        "hits": 0,
        "likes": 0,
        "avg_price": "0.00",
        "cover": "0.00",
        "color": "",
        "genre": "",
        "created_at": "2017-06-14 18:51:13",
        "updated_at": null,
        "city": "Santa Marta"
    },
    {
        "id": 317,
        "name": "Buena Vibra Social Jump",
        "slug": "0317.buena-vibra-social-jump",
        "type": "bar",
        "enabled": "TRUE",
        "verified": "TRUE",
        "description": "",
        "city_id": 1200729,
        "user_id": 1,
        "zone_id": null,
        "address": "Calle 21 #340, Santa Marta",
        "zip": "",
        "lat": "11.24125200000000",
        "lng": "-74.21279100000000",
        "lat_ne": "0.00000000000000",
        "lng_ne": "0.00000000000000",
        "lat_sw": "0.00000000000000",
        "lng_sw": "0.00000000000000",
        "email": "",
        "phone1": "",
        "phone2": "",
        "mobile": "",
        "website": "http://www.facebook.com/buenavibrasocialjump",
        "contact_name": "",
        "photos": 10,
        "modified": "2017-06-14 18:51:13",
        "franhise_id": null,
        "plan": "copper",
        "staff_score": 0,
        "public_score": 0,
        "hits": 0,
        "likes": 0,
        "avg_price": "0.00",
        "cover": "0.00",
        "color": "",
        "genre": "",
        "created_at": "2017-06-14 18:51:13",
        "updated_at": null,
        "city": "Santa Marta"
    },
    {
        "id": 771,
        "name": "Burukuka",
        "slug": "0771.burukuka",
        "type": "restaurant",
        "enabled": "TRUE",
        "verified": "TRUE",
        "description": "",
        "city_id": 1200729,
        "user_id": 1,
        "zone_id": null,
        "address": "Santa Marta, Santa Marta",
        "zip": "",
        "lat": "11.20765300000000",
        "lng": "-74.23063100000000",
        "lat_ne": "0.00000000000000",
        "lng_ne": "0.00000000000000",
        "lat_sw": "0.00000000000000",
        "lng_sw": "0.00000000000000",
        "email": "",
        "phone1": "(5) 4223080",
        "phone2": "",
        "mobile": "",
        "website": "http://www.burukuka.com/",
        "contact_name": "",
        "photos": 0,
        "modified": "2017-06-14 18:51:13",
        "franhise_id": null,
        "plan": "copper",
        "staff_score": 0,
        "public_score": 0,
        "hits": 0,
        "likes": 0,
        "avg_price": "0.00",
        "cover": "0.00",
        "color": "",
        "genre": "",
        "created_at": "2017-06-14 18:51:13",
        "updated_at": null,
        "city": "Santa Marta"
    },
    {
        "id": 403,
        "name": "Cafe bar AMARETTO",
        "slug": "0403.cafe-bar-amaretto",
        "type": "bar",
        "enabled": "TRUE",
        "verified": "TRUE",
        "description": "",
        "city_id": 1200729,
        "user_id": 1,
        "zone_id": null,
        "address": "Calle 7 #3-64, El Rodadero",
        "zip": "",
        "lat": "11.20628200000000",
        "lng": "-74.22534100000000",
        "lat_ne": "0.00000000000000",
        "lng_ne": "0.00000000000000",
        "lat_sw": "0.00000000000000",
        "lng_sw": "0.00000000000000",
        "email": "",
        "phone1": "300 2711092",
        "phone2": "",
        "mobile": "",
        "website": "",
        "contact_name": "",
        "photos": 0,
        "modified": "2017-06-14 18:51:13",
        "franhise_id": null,
        "plan": "copper",
        "staff_score": 0,
        "public_score": 0,
        "hits": 0,
        "likes": 0,
        "avg_price": "0.00",
        "cover": "0.00",
        "color": "",
        "genre": "",
        "created_at": "2017-06-14 18:51:13",
        "updated_at": null,
        "city": "Santa Marta"
    },
    {
        "id": 357,
        "name": "Cafe Bar Parque de los Novios",
        "slug": "0357.cafe-bar-parque-de-los-novios",
        "type": "bar",
        "enabled": "TRUE",
        "verified": "TRUE",
        "description": "",
        "city_id": 1200729,
        "user_id": 1,
        "zone_id": null,
        "address": "Calle 19 #3-08, Santa Marta (Distrito Turístico Cultural E Histórico)",
        "zip": "",
        "lat": "11.24234500000000",
        "lng": "-74.21284700000000",
        "lat_ne": "0.00000000000000",
        "lng_ne": "0.00000000000000",
        "lat_sw": "0.00000000000000",
        "lng_sw": "0.00000000000000",
        "email": "",
        "phone1": "",
        "phone2": "",
        "mobile": "",
        "website": "",
        "contact_name": "",
        "photos": 7,
        "modified": "2017-06-14 18:51:13",
        "franhise_id": null,
        "plan": "copper",
        "staff_score": 0,
        "public_score": 0,
        "hits": 0,
        "likes": 0,
        "avg_price": "0.00",
        "cover": "0.00",
        "color": "",
        "genre": "",
        "created_at": "2017-06-14 18:51:13",
        "updated_at": null,
        "city": "Santa Marta"
    },
    {
        "id": 380,
        "name": "Calle 9",
        "slug": "0380.calle-9",
        "type": "bar",
        "enabled": "TRUE",
        "verified": "TRUE",
        "description": "",
        "city_id": 1200729,
        "user_id": 1,
        "zone_id": null,
        "address": "Carrera 3 #9-11, El Rodadero",
        "zip": "",
        "lat": "11.20318600000000",
        "lng": "-74.22582000000000",
        "lat_ne": "0.00000000000000",
        "lng_ne": "0.00000000000000",
        "lat_sw": "0.00000000000000",
        "lng_sw": "0.00000000000000",
        "email": "",
        "phone1": "(5) 4200210",
        "phone2": "",
        "mobile": "",
        "website": "",
        "contact_name": "",
        "photos": 1,
        "modified": "2017-06-14 18:51:13",
        "franhise_id": null,
        "plan": "copper",
        "staff_score": 0,
        "public_score": 0,
        "hits": 0,
        "likes": 0,
        "avg_price": "0.00",
        "cover": "0.00",
        "color": "",
        "genre": "",
        "created_at": "2017-06-14 18:51:13",
        "updated_at": null,
        "city": "Santa Marta"
    },
    {
        "id": 340,
        "name": "Carbonera Discoteca Disco Bar",
        "slug": "0340.carbonera-discoteca-disco-bar",
        "type": "bar",
        "enabled": "TRUE",
        "verified": "TRUE",
        "description": "",
        "city_id": 1200729,
        "user_id": 1,
        "zone_id": null,
        "address": "Calle 19 #3-46, Santa Marta (Distrito Turístico Cultural E Histórico)",
        "zip": "",
        "lat": "11.24235600000000",
        "lng": "-74.21248100000000",
        "lat_ne": "0.00000000000000",
        "lng_ne": "0.00000000000000",
        "lat_sw": "0.00000000000000",
        "lng_sw": "0.00000000000000",
        "email": "",
        "phone1": "",
        "phone2": "",
        "mobile": "",
        "website": "",
        "contact_name": "",
        "photos": 1,
        "modified": "2017-06-14 18:51:13",
        "franhise_id": null,
        "plan": "copper",
        "staff_score": 0,
        "public_score": 0,
        "hits": 0,
        "likes": 0,
        "avg_price": "0.00",
        "cover": "0.00",
        "color": "",
        "genre": "",
        "created_at": "2017-06-14 18:51:13",
        "updated_at": null,
        "city": "Santa Marta"
    },
    {
        "id": 752,
        "name": "Caribbean Team",
        "slug": "0752.caribbean-team",
        "type": "restaurant",
        "enabled": "TRUE",
        "verified": "TRUE",
        "description": "",
        "city_id": 1200729,
        "user_id": 1,
        "zone_id": null,
        "address": "Carrera 1c #20134, Santa Marta",
        "zip": "",
        "lat": "11.24210300000000",
        "lng": "-74.21644600000000",
        "lat_ne": "0.00000000000000",
        "lng_ne": "0.00000000000000",
        "lat_sw": "0.00000000000000",
        "lng_sw": "0.00000000000000",
        "email": "",
        "phone1": "319 2223476",
        "phone2": "",
        "mobile": "",
        "website": "https://mobile.facebook.com/ElCaribbeanTeam/",
        "contact_name": "",
        "photos": 0,
        "modified": "2017-06-14 18:51:13",
        "franhise_id": null,
        "plan": "copper",
        "staff_score": 0,
        "public_score": 0,
        "hits": 0,
        "likes": 0,
        "avg_price": "0.00",
        "cover": "0.00",
        "color": "",
        "genre": "",
        "created_at": "2017-06-14 18:51:13",
        "updated_at": null,
        "city": "Santa Marta"
    },
    {
        "id": 363,
        "name": "Casa del Ritmo - Hostel & RestoBar",
        "slug": "0363.casa-del-ritmo---hostel-&-restobar",
        "type": "bar",
        "enabled": "TRUE",
        "verified": "TRUE",
        "description": "",
        "city_id": 1200729,
        "user_id": 1,
        "zone_id": null,
        "address": "El Rodadero, Calle 18 #2-59, Gaira, Santa Marta",
        "zip": "",
        "lat": "11.19581400000000",
        "lng": "-74.22692400000000",
        "lat_ne": "0.00000000000000",
        "lng_ne": "0.00000000000000",
        "lat_sw": "0.00000000000000",
        "lng_sw": "0.00000000000000",
        "email": "",
        "phone1": "(5) 4205152",
        "phone2": "",
        "mobile": "",
        "website": "http://www.casadelritmo.com/",
        "contact_name": "",
        "photos": 0,
        "modified": "2017-06-14 18:51:13",
        "franhise_id": null,
        "plan": "copper",
        "staff_score": 0,
        "public_score": 0,
        "hits": 0,
        "likes": 0,
        "avg_price": "0.00",
        "cover": "0.00",
        "color": "",
        "genre": "",
        "created_at": "2017-06-14 18:51:13",
        "updated_at": null,
        "city": "Santa Marta"
    },
    {
        "id": 770,
        "name": "Casa del Ritmo - Hostel & RestoBar",
        "slug": "0770.casa-del-ritmo---hostel-&-restobar",
        "type": "bar",
        "enabled": "TRUE",
        "verified": "TRUE",
        "description": "",
        "city_id": 1200729,
        "user_id": 1,
        "zone_id": null,
        "address": "El Rodadero, Calle 18 #2-59, Gaira, Santa Marta",
        "zip": "",
        "lat": "11.19581400000000",
        "lng": "-74.22692400000000",
        "lat_ne": "0.00000000000000",
        "lng_ne": "0.00000000000000",
        "lat_sw": "0.00000000000000",
        "lng_sw": "0.00000000000000",
        "email": "",
        "phone1": "(5) 4205152",
        "phone2": "",
        "mobile": "",
        "website": "http://www.casadelritmo.com/",
        "contact_name": "",
        "photos": 0,
        "modified": "2017-06-14 18:51:13",
        "franhise_id": null,
        "plan": "copper",
        "staff_score": 0,
        "public_score": 0,
        "hits": 0,
        "likes": 0,
        "avg_price": "0.00",
        "cover": "0.00",
        "color": "",
        "genre": "",
        "created_at": "2017-06-14 18:51:13",
        "updated_at": null,
        "city": "Santa Marta"
    },
    {
        "id": 1418,
        "name": "Casino Bavaria",
        "slug": "1418.casino-bavaria",
        "type": "casino",
        "enabled": "TRUE",
        "verified": "TRUE",
        "description": "",
        "city_id": 1200729,
        "user_id": 1,
        "zone_id": null,
        "address": "Estadero Bavaria, Calle 27 #12-07, Santa Marta",
        "zip": "",
        "lat": "11.23475600000000",
        "lng": "-74.20528900000000",
        "lat_ne": "0.00000000000000",
        "lng_ne": "0.00000000000000",
        "lat_sw": "0.00000000000000",
        "lng_sw": "0.00000000000000",
        "email": "",
        "phone1": "301 7103738",
        "phone2": "",
        "mobile": "",
        "website": "",
        "contact_name": "",
        "photos": 0,
        "modified": "2017-06-14 18:51:13",
        "franhise_id": null,
        "plan": "copper",
        "staff_score": 0,
        "public_score": 0,
        "hits": 0,
        "likes": 0,
        "avg_price": "0.00",
        "cover": "0.00",
        "color": "",
        "genre": "",
        "created_at": "2017-06-14 18:51:13",
        "updated_at": null,
        "city": "Santa Marta"
    },
    {
        "id": 1406,
        "name": "Casino de Oficiales",
        "slug": "1406.casino-de-oficiales",
        "type": "casino",
        "enabled": "TRUE",
        "verified": "TRUE",
        "description": "",
        "city_id": 1200729,
        "user_id": 1,
        "zone_id": null,
        "address": "Calle 22 #1C-74, Santa Marta",
        "zip": "",
        "lat": "11.24032400000000",
        "lng": "-74.21469700000000",
        "lat_ne": "0.00000000000000",
        "lng_ne": "0.00000000000000",
        "lat_sw": "0.00000000000000",
        "lng_sw": "0.00000000000000",
        "email": "",
        "phone1": "",
        "phone2": "",
        "mobile": "",
        "website": "",
        "contact_name": "",
        "photos": 0,
        "modified": "2017-06-14 18:51:13",
        "franhise_id": null,
        "plan": "copper",
        "staff_score": 0,
        "public_score": 0,
        "hits": 0,
        "likes": 0,
        "avg_price": "0.00",
        "cover": "0.00",
        "color": "",
        "genre": "",
        "created_at": "2017-06-14 18:51:13",
        "updated_at": null,
        "city": "Santa Marta"
    },
    {
        "id": 1410,
        "name": "Casino Festival",
        "slug": "1410.casino-festival",
        "type": "casino",
        "enabled": "TRUE",
        "verified": "TRUE",
        "description": "",
        "city_id": 1200729,
        "user_id": 1,
        "zone_id": null,
        "address": "Calle 21 #4-02, Santa Marta",
        "zip": "",
        "lat": "11.24107400000000",
        "lng": "-74.21190500000000",
        "lat_ne": "0.00000000000000",
        "lng_ne": "0.00000000000000",
        "lat_sw": "0.00000000000000",
        "lng_sw": "0.00000000000000",
        "email": "",
        "phone1": "",
        "phone2": "",
        "mobile": "",
        "website": "",
        "contact_name": "",
        "photos": 0,
        "modified": "2017-06-14 18:51:13",
        "franhise_id": null,
        "plan": "copper",
        "staff_score": 0,
        "public_score": 0,
        "hits": 0,
        "likes": 0,
        "avg_price": "0.00",
        "cover": "0.00",
        "color": "",
        "genre": "",
        "created_at": "2017-06-14 18:51:13",
        "updated_at": null,
        "city": "Santa Marta"
    },
    {
        "id": 1417,
        "name": "Casino La Estrella del Mercado",
        "slug": "1417.casino-la-estrella-del-mercado",
        "type": "casino",
        "enabled": "TRUE",
        "verified": "TRUE",
        "description": "",
        "city_id": 1200729,
        "user_id": 1,
        "zone_id": null,
        "address": "Calle 12 #8-19, Santa Marta",
        "zip": "",
        "lat": "11.24528900000000",
        "lng": "-74.20744900000000",
        "lat_ne": "0.00000000000000",
        "lng_ne": "0.00000000000000",
        "lat_sw": "0.00000000000000",
        "lng_sw": "0.00000000000000",
        "email": "",
        "phone1": "(5) 4200148",
        "phone2": "",
        "mobile": "",
        "website": "",
        "contact_name": "",
        "photos": 0,
        "modified": "2017-06-14 18:51:13",
        "franhise_id": null,
        "plan": "copper",
        "staff_score": 0,
        "public_score": 0,
        "hits": 0,
        "likes": 0,
        "avg_price": "0.00",
        "cover": "0.00",
        "color": "",
        "genre": "",
        "created_at": "2017-06-14 18:51:13",
        "updated_at": null,
        "city": "Santa Marta"
    },
    {
        "id": 1420,
        "name": "Casino Ocean Side",
        "slug": "1420.casino-ocean-side",
        "type": "casino",
        "enabled": "TRUE",
        "verified": "TRUE",
        "description": "",
        "city_id": 1200729,
        "user_id": 1,
        "zone_id": null,
        "address": "Santa Marta",
        "zip": "",
        "lat": "11.23140400000000",
        "lng": "-74.19933700000000",
        "lat_ne": "0.00000000000000",
        "lng_ne": "0.00000000000000",
        "lat_sw": "0.00000000000000",
        "lng_sw": "0.00000000000000",
        "email": "",
        "phone1": "",
        "phone2": "",
        "mobile": "",
        "website": "",
        "contact_name": "",
        "photos": 0,
        "modified": "2017-06-14 18:51:13",
        "franhise_id": null,
        "plan": "copper",
        "staff_score": 0,
        "public_score": 0,
        "hits": 0,
        "likes": 0,
        "avg_price": "0.00",
        "cover": "0.00",
        "color": "",
        "genre": "",
        "created_at": "2017-06-14 18:51:13",
        "updated_at": null,
        "city": "Santa Marta"
    },
    {
        "id": 1409,
        "name": "Casino Paradise",
        "slug": "1409.casino-paradise",
        "type": "casino",
        "enabled": "TRUE",
        "verified": "TRUE",
        "description": "",
        "city_id": 1200729,
        "user_id": 1,
        "zone_id": null,
        "address": "Calle 19 #4-55, Santa Marta",
        "zip": "",
        "lat": "11.24216300000000",
        "lng": "-74.21120000000000",
        "lat_ne": "0.00000000000000",
        "lng_ne": "0.00000000000000",
        "lat_sw": "0.00000000000000",
        "lng_sw": "0.00000000000000",
        "email": "",
        "phone1": "(5) 4314995",
        "phone2": "",
        "mobile": "",
        "website": "",
        "contact_name": "",
        "photos": 0,
        "modified": "2017-06-14 18:51:13",
        "franhise_id": null,
        "plan": "copper",
        "staff_score": 0,
        "public_score": 0,
        "hits": 0,
        "likes": 0,
        "avg_price": "0.00",
        "cover": "0.00",
        "color": "",
        "genre": "",
        "created_at": "2017-06-14 18:51:13",
        "updated_at": null,
        "city": "Santa Marta"
    },
    {
        "id": 1407,
        "name": "Casino Playa",
        "slug": "1407.casino-playa",
        "type": "casino",
        "enabled": "TRUE",
        "verified": "TRUE",
        "description": "",
        "city_id": 1200729,
        "user_id": 1,
        "zone_id": null,
        "address": "Calle 17 #2-71, Santa Marta",
        "zip": "",
        "lat": "11.24461800000000",
        "lng": "-74.21410400000000",
        "lat_ne": "0.00000000000000",
        "lng_ne": "0.00000000000000",
        "lat_sw": "0.00000000000000",
        "lng_sw": "0.00000000000000",
        "email": "",
        "phone1": "(5) 4319788",
        "phone2": "",
        "mobile": "",
        "website": "",
        "contact_name": "",
        "photos": 0,
        "modified": "2017-06-14 18:51:13",
        "franhise_id": null,
        "plan": "copper",
        "staff_score": 0,
        "public_score": 0,
        "hits": 0,
        "likes": 0,
        "avg_price": "0.00",
        "cover": "0.00",
        "color": "",
        "genre": "",
        "created_at": "2017-06-14 18:51:13",
        "updated_at": null,
        "city": "Santa Marta"
    },
    {
        "id": 1411,
        "name": "Casino Playa",
        "slug": "1411.casino-playa",
        "type": "casino",
        "enabled": "TRUE",
        "verified": "TRUE",
        "description": "",
        "city_id": 1200729,
        "user_id": 1,
        "zone_id": null,
        "address": "Calle 15, Santa Marta",
        "zip": "",
        "lat": "11.24444000000000",
        "lng": "-74.21262000000000",
        "lat_ne": "0.00000000000000",
        "lng_ne": "0.00000000000000",
        "lat_sw": "0.00000000000000",
        "lng_sw": "0.00000000000000",
        "email": "",
        "phone1": "(5) 4308272",
        "phone2": "",
        "mobile": "",
        "website": "",
        "contact_name": "",
        "photos": 0,
        "modified": "2017-06-14 18:51:13",
        "franhise_id": null,
        "plan": "copper",
        "staff_score": 0,
        "public_score": 0,
        "hits": 0,
        "likes": 0,
        "avg_price": "0.00",
        "cover": "0.00",
        "color": "",
        "genre": "",
        "created_at": "2017-06-14 18:51:13",
        "updated_at": null,
        "city": "Santa Marta"
    }
]